{
"type": "FeatureCollection",
"crs": { "type": "name", "properties": { "name": "urn:ogc:def:crs:OGC:1.3:CRS84" } },
                                                                                
"features": [
{ "type": "Feature", "properties": { "FIPS": null, "ISO2": null, "ISO3": "SCO", "UN": null, "NAME": null, "AREA": null, "POP2005": 5062000, "REGION": null, "SUBREGION": null, "LON": null, "LAT": null }, "geometry": { "type": "Point", "coordinates": [ -4.264284282208187, 57.052456027424299 ] } },
{ "type": "Feature", "properties": { "FIPS": "AC", "ISO2": "AG", "ISO3": "ATG", "UN": 28, "NAME": "Antigua and Barbuda", "AREA": 44, "POP2005": 83039, "REGION": 19, "SUBREGION": 29, "LON": -61.783, "LAT": 17.078 }, "geometry": { "type": "Point", "coordinates": [ -61.802405850752528, 17.3365197914225 ] } },
{ "type": "Feature", "properties": { "FIPS": "AG", "ISO2": "DZ", "ISO3": "DZA", "UN": 12, "NAME": "Algeria", "AREA": 238174, "POP2005": 32854159, "REGION": 2, "SUBREGION": 15, "LON": 2.632, "LAT": 28.163 }, "geometry": { "type": "Point", "coordinates": [ 2.627813023335746, 28.172110231614759 ] } },
{ "type": "Feature", "properties": { "FIPS": "AJ", "ISO2": "AZ", "ISO3": "AZE", "UN": 31, "NAME": "Azerbaijan", "AREA": 8260, "POP2005": 8352021, "REGION": 142, "SUBREGION": 145, "LON": 47.395, "LAT": 40.43 }, "geometry": { "type": "Point", "coordinates": [ 47.551738124367752, 40.295679905645365 ] } },
{ "type": "Feature", "properties": { "FIPS": "AL", "ISO2": "AL", "ISO3": "ALB", "UN": 8, "NAME": "Albania", "AREA": 2740, "POP2005": 3153731, "REGION": 150, "SUBREGION": 39, "LON": 20.068, "LAT": 41.143 }, "geometry": { "type": "Point", "coordinates": [ 20.074366046995571, 41.132545024570284 ] } },
{ "type": "Feature", "properties": { "FIPS": "AM", "ISO2": "AM", "ISO3": "ARM", "UN": 51, "NAME": "Armenia", "AREA": 2820, "POP2005": 3017661, "REGION": 142, "SUBREGION": 145, "LON": 44.563, "LAT": 40.534 }, "geometry": { "type": "Point", "coordinates": [ 44.983527700912198, 40.303842128500776 ] } },
{ "type": "Feature", "properties": { "FIPS": "AO", "ISO2": "AO", "ISO3": "AGO", "UN": 24, "NAME": "Angola", "AREA": 124670, "POP2005": 16095214, "REGION": 2, "SUBREGION": 17, "LON": 17.544, "LAT": -12.296 }, "geometry": { "type": "Point", "coordinates": [ 17.522426393180197, -12.307432116035315 ] } },
{ "type": "Feature", "properties": { "FIPS": "AQ", "ISO2": "AS", "ISO3": "ASM", "UN": 16, "NAME": "American Samoa", "AREA": 20, "POP2005": 64051, "REGION": 9, "SUBREGION": 61, "LON": -170.73, "LAT": -14.318 }, "geometry": { "type": "Point", "coordinates": [ -169.88232719013698, -14.254119772856516 ] } },
{ "type": "Feature", "properties": { "FIPS": "AR", "ISO2": "AR", "ISO3": "ARG", "UN": 32, "NAME": "Argentina", "AREA": 273669, "POP2005": 38747148, "REGION": 19, "SUBREGION": 5, "LON": -65.167, "LAT": -35.377 }, "geometry": { "type": "Point", "coordinates": [ -65.179766244477293, -35.411281401993449 ] } },
{ "type": "Feature", "properties": { "FIPS": "AS", "ISO2": "AU", "ISO3": "AUS", "UN": 36, "NAME": "Australia", "AREA": 768230, "POP2005": 20310208, "REGION": 9, "SUBREGION": 53, "LON": 136.189, "LAT": -24.973 }, "geometry": { "type": "Point", "coordinates": [ 134.48716897197522, -25.728492152987705 ] } },
{ "type": "Feature", "properties": { "FIPS": "BA", "ISO2": "BH", "ISO3": "BHR", "UN": 48, "NAME": "Bahrain", "AREA": 71, "POP2005": 724788, "REGION": 142, "SUBREGION": 145, "LON": 50.562, "LAT": 26.019 }, "geometry": { "type": "Point", "coordinates": [ 50.557781817811751, 25.967876491335939 ] } },
{ "type": "Feature", "properties": { "FIPS": "BB", "ISO2": "BB", "ISO3": "BRB", "UN": 52, "NAME": "Barbados", "AREA": 43, "POP2005": 291933, "REGION": 19, "SUBREGION": 29, "LON": -59.559, "LAT": 13.153 }, "geometry": { "type": "Point", "coordinates": [ -59.534446666666632, 13.18231366666668 ] } },
{ "type": "Feature", "properties": { "FIPS": "BD", "ISO2": "BM", "ISO3": "BMU", "UN": 60, "NAME": "Bermuda", "AREA": 5, "POP2005": 64174, "REGION": 19, "SUBREGION": 21, "LON": -64.709, "LAT": 32.336 }, "geometry": { "type": "Point", "coordinates": [ -64.771672475002404, 32.308650796923885 ] } },
{ "type": "Feature", "properties": { "FIPS": "BF", "ISO2": "BS", "ISO3": "BHS", "UN": 44, "NAME": "Bahamas", "AREA": 1001, "POP2005": 323295, "REGION": 19, "SUBREGION": 29, "LON": -78.014, "LAT": 24.628 }, "geometry": { "type": "Point", "coordinates": [ -76.840306861838769, 24.66078257982441 ] } },
{ "type": "Feature", "properties": { "FIPS": "BG", "ISO2": "BD", "ISO3": "BGD", "UN": 50, "NAME": "Bangladesh", "AREA": 13017, "POP2005": 15328112, "REGION": 142, "SUBREGION": 34, "LON": 89.941, "LAT": 24.218 }, "geometry": { "type": "Point", "coordinates": [ 90.26706485341262, 23.886002448357605 ] } },
{ "type": "Feature", "properties": { "FIPS": "BH", "ISO2": "BZ", "ISO3": "BLZ", "UN": 84, "NAME": "Belize", "AREA": 2281, "POP2005": 275546, "REGION": 19, "SUBREGION": 13, "LON": -88.602, "LAT": 17.219 }, "geometry": { "type": "Point", "coordinates": [ -88.706031221991609, 17.218817256602421 ] } },
{ "type": "Feature", "properties": { "FIPS": "BK", "ISO2": "BA", "ISO3": "BIH", "UN": 70, "NAME": "Bosnia and Herzegovina", "AREA": 5120, "POP2005": 3915238, "REGION": 150, "SUBREGION": 39, "LON": 17.786, "LAT": 44.169 }, "geometry": { "type": "Point", "coordinates": [ 17.759852652690892, 44.139379877684007 ] } },
{ "type": "Feature", "properties": { "FIPS": "BL", "ISO2": "BO", "ISO3": "BOL", "UN": 68, "NAME": "Bolivia", "AREA": 108438, "POP2005": 9182015, "REGION": 19, "SUBREGION": 5, "LON": -64.671, "LAT": -16.715 }, "geometry": { "type": "Point", "coordinates": [ -64.647297239545495, -16.729753387910883 ] } },
{ "type": "Feature", "properties": { "FIPS": "BM", "ISO2": "MM", "ISO3": "MMR", "UN": 104, "NAME": "Burma", "AREA": 65755, "POP2005": 47967266, "REGION": 142, "SUBREGION": 35, "LON": 96.041, "LAT": 21.718 }, "geometry": { "type": "Point", "coordinates": [ 96.535041199135009, 21.18767124906125 ] } },
{ "type": "Feature", "properties": { "FIPS": "BN", "ISO2": "BJ", "ISO3": "BEN", "UN": 204, "NAME": "Benin", "AREA": 11062, "POP2005": 8490301, "REGION": 2, "SUBREGION": 11, "LON": 2.469, "LAT": 10.541 }, "geometry": { "type": "Point", "coordinates": [ 2.33229588430201, 9.604765459282728 ] } },
{ "type": "Feature", "properties": { "FIPS": "BP", "ISO2": "SB", "ISO3": "SLB", "UN": 90, "NAME": "Solomon Islands", "AREA": 2799, "POP2005": 472419, "REGION": 9, "SUBREGION": 54, "LON": 160.109, "LAT": -9.611 }, "geometry": { "type": "Point", "coordinates": [ 159.39864721708875, -8.925746784138733 ] } },
{ "type": "Feature", "properties": { "FIPS": "BR", "ISO2": "BR", "ISO3": "BRA", "UN": 76, "NAME": "Brazil", "AREA": 845942, "POP2005": 186830759, "REGION": 19, "SUBREGION": 5, "LON": -53.089, "LAT": -10.772 }, "geometry": { "type": "Point", "coordinates": [ -53.101409304573885, -10.803237840507784 ] } },
{ "type": "Feature", "properties": { "FIPS": "BU", "ISO2": "BG", "ISO3": "BGR", "UN": 100, "NAME": "Bulgaria", "AREA": 11063, "POP2005": 7744591, "REGION": 150, "SUBREGION": 151, "LON": 25.231, "LAT": 42.761 }, "geometry": { "type": "Point", "coordinates": [ 25.250545574079514, 42.740132215070581 ] } },
{ "type": "Feature", "properties": { "FIPS": "BX", "ISO2": "BN", "ISO3": "BRN", "UN": 96, "NAME": "Brunei Darussalam", "AREA": 527, "POP2005": 373831, "REGION": 142, "SUBREGION": 35, "LON": 114.591, "LAT": 4.468 }, "geometry": { "type": "Point", "coordinates": [ 114.66869981156823, 4.52876143462238 ] } },
{ "type": "Feature", "properties": { "FIPS": "CA", "ISO2": "CA", "ISO3": "CAN", "UN": 124, "NAME": "Canada", "AREA": 909351, "POP2005": 32270507, "REGION": 19, "SUBREGION": 21, "LON": -109.433, "LAT": 59.081 }, "geometry": { "type": "Point", "coordinates": [ -98.450039859057426, 61.225369107627742 ] } },
{ "type": "Feature", "properties": { "FIPS": "CB", "ISO2": "KH", "ISO3": "KHM", "UN": 116, "NAME": "Cambodia", "AREA": 17652, "POP2005": 13955507, "REGION": 142, "SUBREGION": 35, "LON": 104.564, "LAT": 12.714 }, "geometry": { "type": "Point", "coordinates": [ 104.941540548559, 12.724685840913095 ] } },
{ "type": "Feature", "properties": { "FIPS": "CE", "ISO2": "LK", "ISO3": "LKA", "UN": 144, "NAME": "Sri Lanka", "AREA": 6463, "POP2005": 19120763, "REGION": 142, "SUBREGION": 34, "LON": 80.704, "LAT": 7.612 }, "geometry": { "type": "Point", "coordinates": [ 80.678178377552541, 7.650325121152716 ] } },
{ "type": "Feature", "properties": { "FIPS": "CF", "ISO2": "CG", "ISO3": "COG", "UN": 178, "NAME": "Congo", "AREA": 34150, "POP2005": 3609851, "REGION": 2, "SUBREGION": 17, "LON": 15.986, "LAT": -0.055 }, "geometry": { "type": "Point", "coordinates": [ 15.218361554232338, -0.873265869344321 ] } },
{ "type": "Feature", "properties": { "FIPS": "CG", "ISO2": "CD", "ISO3": "COD", "UN": 180, "NAME": "Democratic Republic of the Congo", "AREA": 226705, "POP2005": 58740547, "REGION": 2, "SUBREGION": 17, "LON": 23.654, "LAT": -2.876 }, "geometry": { "type": "Point", "coordinates": [ 23.646398961766646, -2.871058059893151 ] } },
{ "type": "Feature", "properties": { "FIPS": "BY", "ISO2": "BI", "ISO3": "BDI", "UN": 108, "NAME": "Burundi", "AREA": 2568, "POP2005": 7858791, "REGION": 2, "SUBREGION": 14, "LON": 29.887, "LAT": -3.356 }, "geometry": { "type": "Point", "coordinates": [ 29.901786281658886, -3.346160588997873 ] } },
{ "type": "Feature", "properties": { "FIPS": "CH", "ISO2": "CN", "ISO3": "CHN", "UN": 156, "NAME": "China", "AREA": 932743, "POP2005": 1312978855, "REGION": 142, "SUBREGION": 30, "LON": 106.514, "LAT": 33.42 }, "geometry": { "type": "Point", "coordinates": [ 103.81147763127967, 36.569589299275918 ] } },
{ "type": "Feature", "properties": { "FIPS": "AF", "ISO2": "AF", "ISO3": "AFG", "UN": 4, "NAME": "Afghanistan", "AREA": 65209, "POP2005": 25067407, "REGION": 142, "SUBREGION": 34, "LON": 65.216, "LAT": 33.677 }, "geometry": { "type": "Point", "coordinates": [ 66.001111195527344, 33.858776158276591 ] } },
{ "type": "Feature", "properties": { "FIPS": "BT", "ISO2": "BT", "ISO3": "BTN", "UN": 64, "NAME": "Bhutan", "AREA": 4700, "POP2005": 637013, "REGION": 142, "SUBREGION": 34, "LON": 90.429, "LAT": 27.415 }, "geometry": { "type": "Point", "coordinates": [ 90.464827703449785, 27.406580293350963 ] } },
{ "type": "Feature", "properties": { "FIPS": "CI", "ISO2": "CL", "ISO3": "CHL", "UN": 152, "NAME": "Chile", "AREA": 74880, "POP2005": 16295102, "REGION": 19, "SUBREGION": 5, "LON": -69.433, "LAT": -23.389 }, "geometry": { "type": "Point", "coordinates": [ -71.252768660067389, -37.001684651939364 ] } },
{ "type": "Feature", "properties": { "FIPS": "CJ", "ISO2": "KY", "ISO3": "CYM", "UN": 136, "NAME": "Cayman Islands", "AREA": 26, "POP2005": 45591, "REGION": 19, "SUBREGION": 29, "LON": -81.198, "LAT": 19.314 }, "geometry": { "type": "Point", "coordinates": [ -80.874397952335656, 19.427989594486856 ] } },
{ "type": "Feature", "properties": { "FIPS": "CM", "ISO2": "CM", "ISO3": "CMR", "UN": 120, "NAME": "Cameroon", "AREA": 46540, "POP2005": 17795149, "REGION": 2, "SUBREGION": 17, "LON": 12.277, "LAT": 5.133 }, "geometry": { "type": "Point", "coordinates": [ 12.734691576125861, 5.637871620046408 ] } },
{ "type": "Feature", "properties": { "FIPS": "CD", "ISO2": "TD", "ISO3": "TCD", "UN": 148, "NAME": "Chad", "AREA": 125920, "POP2005": 10145609, "REGION": 2, "SUBREGION": 17, "LON": 18.665, "LAT": 15.361 }, "geometry": { "type": "Point", "coordinates": [ 18.683041327638819, 15.318384474036888 ] } },
{ "type": "Feature", "properties": { "FIPS": "CN", "ISO2": "KM", "ISO3": "COM", "UN": 174, "NAME": "Comoros", "AREA": 223, "POP2005": 797902, "REGION": 2, "SUBREGION": 14, "LON": 43.337, "LAT": -11.758 }, "geometry": { "type": "Point", "coordinates": [ 43.794473742051245, -11.961116468802642 ] } },
{ "type": "Feature", "properties": { "FIPS": "CO", "ISO2": "CO", "ISO3": "COL", "UN": 170, "NAME": "Colombia", "AREA": 103870, "POP2005": 4494579, "REGION": 19, "SUBREGION": 5, "LON": -73.076, "LAT": 3.9 }, "geometry": { "type": "Point", "coordinates": [ -73.054034154850982, 3.885744012761621 ] } },
{ "type": "Feature", "properties": { "FIPS": "CS", "ISO2": "CR", "ISO3": "CRI", "UN": 188, "NAME": "Costa Rica", "AREA": 5106, "POP2005": 4327228, "REGION": 19, "SUBREGION": 13, "LON": -83.946, "LAT": 9.971 }, "geometry": { "type": "Point", "coordinates": [ -84.097384398263912, 9.905458957593444 ] } },
{ "type": "Feature", "properties": { "FIPS": "CT", "ISO2": "CF", "ISO3": "CAF", "UN": 140, "NAME": "Central African Republic", "AREA": 62298, "POP2005": 4191429, "REGION": 2, "SUBREGION": 17, "LON": 20.483, "LAT": 6.571 }, "geometry": { "type": "Point", "coordinates": [ 20.471091514446815, 6.56319950602365 ] } },
{ "type": "Feature", "properties": { "FIPS": "CU", "ISO2": "CU", "ISO3": "CUB", "UN": 192, "NAME": "Cuba", "AREA": 10982, "POP2005": 11259905, "REGION": 19, "SUBREGION": 29, "LON": -77.781, "LAT": 21.297 }, "geometry": { "type": "Point", "coordinates": [ -78.961429291269752, 21.601653725815282 ] } },
{ "type": "Feature", "properties": { "FIPS": "CV", "ISO2": "CV", "ISO3": "CPV", "UN": 132, "NAME": "Cape Verde", "AREA": 403, "POP2005": 506807, "REGION": 2, "SUBREGION": 11, "LON": -23.634, "LAT": 15.071 }, "geometry": { "type": "Point", "coordinates": [ -24.154355250261471, 16.041786890117638 ] } },
{ "type": "Feature", "properties": { "FIPS": "CW", "ISO2": "CK", "ISO3": "COK", "UN": 184, "NAME": "Cook Islands", "AREA": 24, "POP2005": 13984, "REGION": 9, "SUBREGION": 61, "LON": -159.782, "LAT": -21.219 }, "geometry": { "type": "Point", "coordinates": [ -159.09537251534937, -18.831338061077936 ] } },
{ "type": "Feature", "properties": { "FIPS": "CY", "ISO2": "CY", "ISO3": "CYP", "UN": 196, "NAME": "Cyprus", "AREA": 924, "POP2005": 836321, "REGION": 142, "SUBREGION": 145, "LON": 33.219, "LAT": 35.043 }, "geometry": { "type": "Point", "coordinates": [ 33.331710698201391, 35.029615424100093 ] } },
{ "type": "Feature", "properties": { "FIPS": "DA", "ISO2": "DK", "ISO3": "DNK", "UN": 208, "NAME": "Denmark", "AREA": 4243, "POP2005": 5416945, "REGION": 150, "SUBREGION": 154, "LON": 9.264, "LAT": 56.058 }, "geometry": { "type": "Point", "coordinates": [ 9.933947218210069, 55.995264992200802 ] } },
{ "type": "Feature", "properties": { "FIPS": "DJ", "ISO2": "DJ", "ISO3": "DJI", "UN": 262, "NAME": "Djibouti", "AREA": 2318, "POP2005": 804206, "REGION": 2, "SUBREGION": 14, "LON": 42.516, "LAT": 11.9 }, "geometry": { "type": "Point", "coordinates": [ 42.563496522141079, 11.757116579903723 ] } },
{ "type": "Feature", "properties": { "FIPS": "DO", "ISO2": "DM", "ISO3": "DMA", "UN": 212, "NAME": "Dominica", "AREA": 75, "POP2005": 67827, "REGION": 19, "SUBREGION": 29, "LON": -61.356, "LAT": 15.475 }, "geometry": { "type": "Point", "coordinates": [ -61.356392, 15.430462 ] } },
{ "type": "Feature", "properties": { "FIPS": "DR", "ISO2": "DO", "ISO3": "DOM", "UN": 214, "NAME": "Dominican Republic", "AREA": 4838, "POP2005": 9469601, "REGION": 19, "SUBREGION": 29, "LON": -70.729, "LAT": 19.015 }, "geometry": { "type": "Point", "coordinates": [ -70.504580792872801, 18.893175612577501 ] } },
{ "type": "Feature", "properties": { "FIPS": "EC", "ISO2": "EC", "ISO3": "ECU", "UN": 218, "NAME": "Ecuador", "AREA": 27684, "POP2005": 13060993, "REGION": 19, "SUBREGION": 5, "LON": -78.497, "LAT": -1.385 }, "geometry": { "type": "Point", "coordinates": [ -78.630320870207967, -1.433181662978076 ] } },
{ "type": "Feature", "properties": { "FIPS": "EG", "ISO2": "EG", "ISO3": "EGY", "UN": 818, "NAME": "Egypt", "AREA": 99545, "POP2005": 72849793, "REGION": 2, "SUBREGION": 15, "LON": 29.872, "LAT": 26.494 }, "geometry": { "type": "Point", "coordinates": [ 29.893087971808061, 26.4957360379262 ] } },
{ "type": "Feature", "properties": { "FIPS": "EI", "ISO2": "IE", "ISO3": "IRL", "UN": 372, "NAME": "Ireland", "AREA": 6889, "POP2005": 4143294, "REGION": 150, "SUBREGION": 154, "LON": -8.152, "LAT": 53.177 }, "geometry": { "type": "Point", "coordinates": [ -8.085667790282701, 53.211679128069846 ] } },
{ "type": "Feature", "properties": { "FIPS": "EK", "ISO2": "GQ", "ISO3": "GNQ", "UN": 226, "NAME": "Equatorial Guinea", "AREA": 2805, "POP2005": 484098, "REGION": 2, "SUBREGION": 17, "LON": 10.488, "LAT": 1.607 }, "geometry": { "type": "Point", "coordinates": [ 10.361908851854876, 1.665339803298234 ] } },
{ "type": "Feature", "properties": { "FIPS": "EN", "ISO2": "EE", "ISO3": "EST", "UN": 233, "NAME": "Estonia", "AREA": 4239, "POP2005": 1344312, "REGION": 150, "SUBREGION": 154, "LON": 25.793, "LAT": 58.674 }, "geometry": { "type": "Point", "coordinates": [ 25.662769175656919, 58.661664478600841 ] } },
{ "type": "Feature", "properties": { "FIPS": "ER", "ISO2": "ER", "ISO3": "ERI", "UN": 232, "NAME": "Eritrea", "AREA": 10100, "POP2005": 4526722, "REGION": 2, "SUBREGION": 14, "LON": 38.219, "LAT": 16.045 }, "geometry": { "type": "Point", "coordinates": [ 38.933716556456254, 15.318835179499432 ] } },
{ "type": "Feature", "properties": { "FIPS": "ES", "ISO2": "SV", "ISO3": "SLV", "UN": 222, "NAME": "El Salvador", "AREA": 2072, "POP2005": 6668356, "REGION": 19, "SUBREGION": 13, "LON": -88.866, "LAT": 13.736 }, "geometry": { "type": "Point", "coordinates": [ -88.851749728834747, 13.713582398232637 ] } },
{ "type": "Feature", "properties": { "FIPS": "ET", "ISO2": "ET", "ISO3": "ETH", "UN": 231, "NAME": "Ethiopia", "AREA": 100000, "POP2005": 78985857, "REGION": 2, "SUBREGION": 14, "LON": 39.616, "LAT": 8.626 }, "geometry": { "type": "Point", "coordinates": [ 39.630840748452854, 8.610914312082652 ] } },
{ "type": "Feature", "properties": { "FIPS": "AU", "ISO2": "AT", "ISO3": "AUT", "UN": 40, "NAME": "Austria", "AREA": 8245, "POP2005": 8291979, "REGION": 150, "SUBREGION": 155, "LON": 14.912, "LAT": 47.683 }, "geometry": { "type": "Point", "coordinates": [ 14.191526637303852, 47.602559929950523 ] } },
{ "type": "Feature", "properties": { "FIPS": "EZ", "ISO2": "CZ", "ISO3": "CZE", "UN": 203, "NAME": "Czech Republic", "AREA": 7727, "POP2005": 10191762, "REGION": 150, "SUBREGION": 151, "LON": 15.338, "LAT": 49.743 }, "geometry": { "type": "Point", "coordinates": [ 15.287049529348515, 49.761348789781195 ] } },
{ "type": "Feature", "properties": { "FIPS": "FG", "ISO2": "GF", "ISO3": "GUF", "UN": 254, "NAME": "French Guiana", "AREA": 8815, "POP2005": 192099, "REGION": 19, "SUBREGION": 5, "LON": -53.241, "LAT": 3.924 }, "geometry": { "type": "Point", "coordinates": [ -53.246533987802934, 3.890030903145193 ] } },
{ "type": "Feature", "properties": { "FIPS": "FI", "ISO2": "FI", "ISO3": "FIN", "UN": 246, "NAME": "Finland", "AREA": 30459, "POP2005": 5246004, "REGION": 150, "SUBREGION": 154, "LON": 26.272, "LAT": 64.504 }, "geometry": { "type": "Point", "coordinates": [ 26.240737848297091, 64.518461095501863 ] } },
{ "type": "Feature", "properties": { "FIPS": "FJ", "ISO2": "FJ", "ISO3": "FJI", "UN": 242, "NAME": "Fiji", "AREA": 1827, "POP2005": 828046, "REGION": 9, "SUBREGION": 54, "LON": 177.974, "LAT": -17.819 }, "geometry": { "type": "Point", "coordinates": [ 166.84382594861148, -17.417251342163553 ] } },
{ "type": "Feature", "properties": { "FIPS": "FK", "ISO2": "FK", "ISO3": "FLK", "UN": 238, "NAME": "Falkland Islands (Malvinas)", "AREA": 1217, "POP2005": 2975, "REGION": 19, "SUBREGION": 5, "LON": -58.694, "LAT": -51.665 }, "geometry": { "type": "Point", "coordinates": [ -59.411125310214942, -51.734717556671107 ] } },
{ "type": "Feature", "properties": { "FIPS": "FM", "ISO2": "FM", "ISO3": "FSM", "UN": 583, "NAME": "Micronesia, Federated States of", "AREA": 70, "POP2005": 110058, "REGION": 9, "SUBREGION": 57, "LON": 158.235, "LAT": 6.883 }, "geometry": { "type": "Point", "coordinates": [ 153.45505430949765, 7.268708179563336 ] } },
{ "type": "Feature", "properties": { "FIPS": "FP", "ISO2": "PF", "ISO3": "PYF", "UN": 258, "NAME": "French Polynesia", "AREA": 366, "POP2005": 255632, "REGION": 9, "SUBREGION": 61, "LON": -149.462, "LAT": -17.626 }, "geometry": { "type": "Point", "coordinates": [ -145.43089938407394, -15.031745306910363 ] } },
{ "type": "Feature", "properties": { "FIPS": "FR", "ISO2": "FR", "ISO3": "FRA", "UN": 250, "NAME": "France", "AREA": 55010, "POP2005": 60990544, "REGION": 150, "SUBREGION": 155, "LON": 2.55, "LAT": 46.565 }, "geometry": { "type": "Point", "coordinates": [ 2.550860905155678, 46.586200516652319 ] } },
{ "type": "Feature", "properties": { "FIPS": "GA", "ISO2": "GM", "ISO3": "GMB", "UN": 270, "NAME": "Gambia", "AREA": 1000, "POP2005": 1617029, "REGION": 2, "SUBREGION": 11, "LON": -15.386, "LAT": 13.453 }, "geometry": { "type": "Point", "coordinates": [ -15.490288714986903, 13.466328926631723 ] } },
{ "type": "Feature", "properties": { "FIPS": "GB", "ISO2": "GA", "ISO3": "GAB", "UN": 266, "NAME": "Gabon", "AREA": 25767, "POP2005": 1290693, "REGION": 2, "SUBREGION": 17, "LON": 11.797, "LAT": -0.591 }, "geometry": { "type": "Point", "coordinates": [ 11.810185847003327, -0.614838185882295 ] } },
{ "type": "Feature", "properties": { "FIPS": "GG", "ISO2": "GE", "ISO3": "GEO", "UN": 268, "NAME": "Georgia", "AREA": 6949, "POP2005": 4473409, "REGION": 142, "SUBREGION": 145, "LON": 43.518, "LAT": 42.176 }, "geometry": { "type": "Point", "coordinates": [ 43.4916719463139, 42.204285589390601 ] } },
{ "type": "Feature", "properties": { "FIPS": "GH", "ISO2": "GH", "ISO3": "GHA", "UN": 288, "NAME": "Ghana", "AREA": 22754, "POP2005": 2253501, "REGION": 2, "SUBREGION": 11, "LON": -1.207, "LAT": 7.96 }, "geometry": { "type": "Point", "coordinates": [ -1.179135676927483, 7.925560732376664 ] } },
{ "type": "Feature", "properties": { "FIPS": "GJ", "ISO2": "GD", "ISO3": "GRD", "UN": 308, "NAME": "Grenada", "AREA": 34, "POP2005": 105237, "REGION": 19, "SUBREGION": 29, "LON": -61.678, "LAT": 12.118 }, "geometry": { "type": "Point", "coordinates": [ -61.620026679436123, 12.170663943107618 ] } },
{ "type": "Feature", "properties": { "FIPS": "GL", "ISO2": "GL", "ISO3": "GRL", "UN": 304, "NAME": "Greenland", "AREA": 41045, "POP2005": 57475, "REGION": 19, "SUBREGION": 21, "LON": -41.391, "LAT": 74.719 }, "geometry": { "type": "Point", "coordinates": [ -41.422953206816864, 74.725556616770064 ] } },
{ "type": "Feature", "properties": { "FIPS": "GM", "ISO2": "DE", "ISO3": "DEU", "UN": 276, "NAME": "Germany", "AREA": 34895, "POP2005": 82652369, "REGION": 150, "SUBREGION": 155, "LON": 9.851, "LAT": 51.11 }, "geometry": { "type": "Point", "coordinates": [ 10.364249045851004, 51.112522975956459 ] } },
{ "type": "Feature", "properties": { "FIPS": "GQ", "ISO2": "GU", "ISO3": "GUM", "UN": 316, "NAME": "Guam", "AREA": 55, "POP2005": 16857, "REGION": 9, "SUBREGION": 57, "LON": 144.707, "LAT": 13.385 }, "geometry": { "type": "Point", "coordinates": [ 144.746633, 13.43879433333335 ] } },
{ "type": "Feature", "properties": { "FIPS": "GR", "ISO2": "GR", "ISO3": "GRC", "UN": 300, "NAME": "Greece", "AREA": 12890, "POP2005": 11099737, "REGION": 150, "SUBREGION": 39, "LON": 21.766, "LAT": 39.666 }, "geometry": { "type": "Point", "coordinates": [ 22.858485757553915, 39.13809589012341 ] } },
{ "type": "Feature", "properties": { "FIPS": "GT", "ISO2": "GT", "ISO3": "GTM", "UN": 320, "NAME": "Guatemala", "AREA": 10843, "POP2005": 12709564, "REGION": 19, "SUBREGION": 13, "LON": -90.398, "LAT": 15.256 }, "geometry": { "type": "Point", "coordinates": [ -90.343364261172113, 15.702474169284285 ] } },
{ "type": "Feature", "properties": { "FIPS": "GV", "ISO2": "GN", "ISO3": "GIN", "UN": 324, "NAME": "Guinea", "AREA": 24572, "POP2005": 9002656, "REGION": 2, "SUBREGION": 11, "LON": -10.942, "LAT": 10.439 }, "geometry": { "type": "Point", "coordinates": [ -10.899682456051957, 10.428414882375506 ] } },
{ "type": "Feature", "properties": { "FIPS": "GY", "ISO2": "GY", "ISO3": "GUY", "UN": 328, "NAME": "Guyana", "AREA": 19685, "POP2005": 739472, "REGION": 19, "SUBREGION": 5, "LON": -58.974, "LAT": 4.792 }, "geometry": { "type": "Point", "coordinates": [ -58.970257880218902, 4.745794108931534 ] } },
{ "type": "Feature", "properties": { "FIPS": "HA", "ISO2": "HT", "ISO3": "HTI", "UN": 332, "NAME": "Haiti", "AREA": 2756, "POP2005": 9296291, "REGION": 19, "SUBREGION": 29, "LON": -72.278, "LAT": 19.142 }, "geometry": { "type": "Point", "coordinates": [ -72.704019462816333, 18.874681436145575 ] } },
{ "type": "Feature", "properties": { "FIPS": "HO", "ISO2": "HN", "ISO3": "HND", "UN": 340, "NAME": "Honduras", "AREA": 11189, "POP2005": 683411, "REGION": 19, "SUBREGION": 13, "LON": -86.863, "LAT": 14.819 }, "geometry": { "type": "Point", "coordinates": [ -86.652843592771845, 14.840209988419586 ] } },
{ "type": "Feature", "properties": { "FIPS": "HR", "ISO2": "HR", "ISO3": "HRV", "UN": 191, "NAME": "Croatia", "AREA": 5592, "POP2005": 455149, "REGION": 150, "SUBREGION": 39, "LON": 16.693, "LAT": 45.723 }, "geometry": { "type": "Point", "coordinates": [ 16.442661379296265, 45.140794387097422 ] } },
{ "type": "Feature", "properties": { "FIPS": "HU", "ISO2": "HU", "ISO3": "HUN", "UN": 348, "NAME": "Hungary", "AREA": 9210, "POP2005": 10086387, "REGION": 150, "SUBREGION": 151, "LON": 19.134, "LAT": 47.07 }, "geometry": { "type": "Point", "coordinates": [ 19.425884747880794, 47.169246733817381 ] } },
{ "type": "Feature", "properties": { "FIPS": "IC", "ISO2": "IS", "ISO3": "ISL", "UN": 352, "NAME": "Iceland", "AREA": 10025, "POP2005": 295732, "REGION": 150, "SUBREGION": 154, "LON": -18.48, "LAT": 64.764 }, "geometry": { "type": "Point", "coordinates": [ -18.594206430754692, 65.003534131617641 ] } },
{ "type": "Feature", "properties": { "FIPS": "IN", "ISO2": "IN", "ISO3": "IND", "UN": 356, "NAME": "India", "AREA": 297319, "POP2005": 1134403141, "REGION": 142, "SUBREGION": 34, "LON": 78.5, "LAT": 21.0 }, "geometry": { "type": "Point", "coordinates": [ 79.631599815578468, 22.894337133217316 ] } },
{ "type": "Feature", "properties": { "FIPS": "IR", "ISO2": "IR", "ISO3": "IRN", "UN": 364, "NAME": "Iran (Islamic Republic of)", "AREA": 163620, "POP2005": 69420607, "REGION": 142, "SUBREGION": 34, "LON": 54.301, "LAT": 32.565 }, "geometry": { "type": "Point", "coordinates": [ 54.284732139151217, 32.576513526034731 ] } },
{ "type": "Feature", "properties": { "FIPS": "IS", "ISO2": "IL", "ISO3": "ISR", "UN": 376, "NAME": "Israel", "AREA": 2171, "POP2005": 6692037, "REGION": 142, "SUBREGION": 145, "LON": 34.851, "LAT": 31.026 }, "geometry": { "type": "Point", "coordinates": [ 34.964351843026861, 31.423444050348021 ] } },
{ "type": "Feature", "properties": { "FIPS": "IT", "ISO2": "IT", "ISO3": "ITA", "UN": 380, "NAME": "Italy", "AREA": 29411, "POP2005": 5864636, "REGION": 150, "SUBREGION": 39, "LON": 12.8, "LAT": 42.7 }, "geometry": { "type": "Point", "coordinates": [ 12.077385176294216, 42.840446873070526 ] } },
{ "type": "Feature", "properties": { "FIPS": "IV", "ISO2": "CI", "ISO3": "CIV", "UN": 384, "NAME": "Cote d'Ivoire", "AREA": 31800, "POP2005": 18584701, "REGION": 2, "SUBREGION": 11, "LON": -5.556, "LAT": 7.632 }, "geometry": { "type": "Point", "coordinates": [ -5.54380467238432, 7.593751299435081 ] } },
{ "type": "Feature", "properties": { "FIPS": "IZ", "ISO2": "IQ", "ISO3": "IRQ", "UN": 368, "NAME": "Iraq", "AREA": 43737, "POP2005": 27995984, "REGION": 142, "SUBREGION": 145, "LON": 43.772, "LAT": 33.048 }, "geometry": { "type": "Point", "coordinates": [ 43.759794454701101, 33.076968597402178 ] } },
{ "type": "Feature", "properties": { "FIPS": "JA", "ISO2": "JP", "ISO3": "JPN", "UN": 392, "NAME": "Japan", "AREA": 36450, "POP2005": 127896740, "REGION": 142, "SUBREGION": 30, "LON": 139.068, "LAT": 36.491 }, "geometry": { "type": "Point", "coordinates": [ 137.99265913557869, 37.532143448040728 ] } },
{ "type": "Feature", "properties": { "FIPS": "JM", "ISO2": "JM", "ISO3": "JAM", "UN": 388, "NAME": "Jamaica", "AREA": 1083, "POP2005": 2682469, "REGION": 19, "SUBREGION": 29, "LON": -77.32, "LAT": 18.151 }, "geometry": { "type": "Point", "coordinates": [ -77.311358425682585, 18.125184831562308 ] } },
{ "type": "Feature", "properties": { "FIPS": "JO", "ISO2": "JO", "ISO3": "JOR", "UN": 400, "NAME": "Jordan", "AREA": 8824, "POP2005": 5544066, "REGION": 142, "SUBREGION": 145, "LON": 36.319, "LAT": 30.703 }, "geometry": { "type": "Point", "coordinates": [ 36.770554625955953, 31.2408264017124 ] } },
{ "type": "Feature", "properties": { "FIPS": "KE", "ISO2": "KE", "ISO3": "KEN", "UN": 404, "NAME": "Kenya", "AREA": 56914, "POP2005": 35598952, "REGION": 2, "SUBREGION": 14, "LON": 37.858, "LAT": 0.53 }, "geometry": { "type": "Point", "coordinates": [ 37.824698508926325, 0.538311825503038 ] } },
{ "type": "Feature", "properties": { "FIPS": "KG", "ISO2": "KG", "ISO3": "KGZ", "UN": 417, "NAME": "Kyrgyzstan", "AREA": 19180, "POP2005": 5203547, "REGION": 142, "SUBREGION": 143, "LON": 74.555, "LAT": 41.465 }, "geometry": { "type": "Point", "coordinates": [ 74.583467489469655, 41.448207123146418 ] } },
{ "type": "Feature", "properties": { "FIPS": "KN", "ISO2": "KP", "ISO3": "PRK", "UN": 408, "NAME": "Korea, Democratic People's Republic of", "AREA": 12041, "POP2005": 23615611, "REGION": 142, "SUBREGION": 30, "LON": 126.451, "LAT": 39.778 }, "geometry": { "type": "Point", "coordinates": [ 127.21971457466196, 40.168345835570918 ] } },
{ "type": "Feature", "properties": { "FIPS": "KR", "ISO2": "KI", "ISO3": "KIR", "UN": 296, "NAME": "Kiribati", "AREA": 73, "POP2005": 92003, "REGION": 9, "SUBREGION": 57, "LON": 175.036, "LAT": -1.508 }, "geometry": { "type": "Point", "coordinates": [ -36.885870614857382, 0.982193016142277 ] } },
{ "type": "Feature", "properties": { "FIPS": "KS", "ISO2": "KR", "ISO3": "KOR", "UN": 410, "NAME": "Korea, Republic of", "AREA": 9873, "POP2005": 47869837, "REGION": 142, "SUBREGION": 30, "LON": 128.103, "LAT": 36.504 }, "geometry": { "type": "Point", "coordinates": [ 127.87121405255444, 36.420721375133475 ] } },
{ "type": "Feature", "properties": { "FIPS": "KU", "ISO2": "KW", "ISO3": "KWT", "UN": 414, "NAME": "Kuwait", "AREA": 1782, "POP2005": 2700, "REGION": 142, "SUBREGION": 145, "LON": 47.376, "LAT": 29.476 }, "geometry": { "type": "Point", "coordinates": [ 47.573138784398232, 29.327867874705973 ] } },
{ "type": "Feature", "properties": { "FIPS": "KZ", "ISO2": "KZ", "ISO3": "KAZ", "UN": 398, "NAME": "Kazakhstan", "AREA": 269970, "POP2005": 15210609, "REGION": 142, "SUBREGION": 143, "LON": 67.301, "LAT": 48.16 }, "geometry": { "type": "Point", "coordinates": [ 67.26502487404538, 48.146637601194705 ] } },
{ "type": "Feature", "properties": { "FIPS": "LA", "ISO2": "LA", "ISO3": "LAO", "UN": 418, "NAME": "Lao People's Democratic Republic", "AREA": 23080, "POP2005": 566391, "REGION": 142, "SUBREGION": 35, "LON": 102.471, "LAT": 19.905 }, "geometry": { "type": "Point", "coordinates": [ 103.74979310652913, 18.512943112717554 ] } },
{ "type": "Feature", "properties": { "FIPS": "LE", "ISO2": "LB", "ISO3": "LBN", "UN": 422, "NAME": "Lebanon", "AREA": 1023, "POP2005": 401074, "REGION": 142, "SUBREGION": 145, "LON": 35.888, "LAT": 33.92 }, "geometry": { "type": "Point", "coordinates": [ 35.92644505231069, 33.953103759435166 ] } },
{ "type": "Feature", "properties": { "FIPS": "LG", "ISO2": "LV", "ISO3": "LVA", "UN": 428, "NAME": "Latvia", "AREA": 6205, "POP2005": 2301793, "REGION": 150, "SUBREGION": 154, "LON": 25.641, "LAT": 56.858 }, "geometry": { "type": "Point", "coordinates": [ 24.836722901148189, 56.867828219944329 ] } },
{ "type": "Feature", "properties": { "FIPS": "BO", "ISO2": "BY", "ISO3": "BLR", "UN": 112, "NAME": "Belarus", "AREA": 20748, "POP2005": 9795287, "REGION": 150, "SUBREGION": 151, "LON": 28.047, "LAT": 53.54 }, "geometry": { "type": "Point", "coordinates": [ 28.036360986632854, 53.539591617190084 ] } },
{ "type": "Feature", "properties": { "FIPS": "LH", "ISO2": "LT", "ISO3": "LTU", "UN": 440, "NAME": "Lithuania", "AREA": 6268, "POP2005": 3425077, "REGION": 150, "SUBREGION": 154, "LON": 23.897, "LAT": 55.336 }, "geometry": { "type": "Point", "coordinates": [ 23.89202140143502, 55.326497810920614 ] } },
{ "type": "Feature", "properties": { "FIPS": "LI", "ISO2": "LR", "ISO3": "LBR", "UN": 430, "NAME": "Liberia", "AREA": 9632, "POP2005": 3441796, "REGION": 2, "SUBREGION": 11, "LON": -9.657, "LAT": 6.682 }, "geometry": { "type": "Point", "coordinates": [ -9.338043743411202, 6.453021081981533 ] } },
{ "type": "Feature", "properties": { "FIPS": "LO", "ISO2": "SK", "ISO3": "SVK", "UN": 703, "NAME": "Slovakia", "AREA": 4808, "POP2005": 5386995, "REGION": 150, "SUBREGION": 151, "LON": 19.491, "LAT": 48.707 }, "geometry": { "type": "Point", "coordinates": [ 19.523504984987436, 48.72049672023244 ] } },
{ "type": "Feature", "properties": { "FIPS": "LS", "ISO2": "LI", "ISO3": "LIE", "UN": 438, "NAME": "Liechtenstein", "AREA": 16, "POP2005": 34598, "REGION": 150, "SUBREGION": 155, "LON": 9.555, "LAT": 47.153 }, "geometry": { "type": "Point", "coordinates": [ 9.535613666666697, 47.131945333333348 ] } },
{ "type": "Feature", "properties": { "FIPS": "LY", "ISO2": "LY", "ISO3": "LBY", "UN": 434, "NAME": "Libyan Arab Jamahiriya", "AREA": 175954, "POP2005": 5918217, "REGION": 2, "SUBREGION": 15, "LON": 18.023, "LAT": 27.044 }, "geometry": { "type": "Point", "coordinates": [ 18.025946424796263, 27.025637766779685 ] } },
{ "type": "Feature", "properties": { "FIPS": "MA", "ISO2": "MG", "ISO3": "MDG", "UN": 450, "NAME": "Madagascar", "AREA": 58154, "POP2005": 18642586, "REGION": 2, "SUBREGION": 14, "LON": 46.706, "LAT": -19.374 }, "geometry": { "type": "Point", "coordinates": [ 46.686012405264655, -19.362974037954885 ] } },
{ "type": "Feature", "properties": { "FIPS": "MB", "ISO2": "MQ", "ISO3": "MTQ", "UN": 474, "NAME": "Martinique", "AREA": 106, "POP2005": 395896, "REGION": 19, "SUBREGION": 29, "LON": -61.021, "LAT": 14.653 }, "geometry": { "type": "Point", "coordinates": [ -60.99213, 14.673518 ] } },
{ "type": "Feature", "properties": { "FIPS": "MG", "ISO2": "MN", "ISO3": "MNG", "UN": 496, "NAME": "Mongolia", "AREA": 156650, "POP2005": 2580704, "REGION": 142, "SUBREGION": 30, "LON": 102.876, "LAT": 46.056 }, "geometry": { "type": "Point", "coordinates": [ 103.08100727967258, 46.841308843637421 ] } },
{ "type": "Feature", "properties": { "FIPS": "MH", "ISO2": "MS", "ISO3": "MSR", "UN": 500, "NAME": "Montserrat", "AREA": 10, "POP2005": 5628, "REGION": 19, "SUBREGION": 29, "LON": -62.187, "LAT": 16.736 }, "geometry": { "type": "Point", "coordinates": [ -62.203338333333285, 16.732312666666676 ] } },
{ "type": "Feature", "properties": { "FIPS": "MK", "ISO2": "MK", "ISO3": "MKD", "UN": 807, "NAME": "The former Yugoslav Republic of Macedonia", "AREA": 2543, "POP2005": 2033655, "REGION": 150, "SUBREGION": 39, "LON": 21.698, "LAT": 41.6 }, "geometry": { "type": "Point", "coordinates": [ 21.713406062166918, 41.58589334897426 ] } },
{ "type": "Feature", "properties": { "FIPS": "ML", "ISO2": "ML", "ISO3": "MLI", "UN": 466, "NAME": "Mali", "AREA": 122019, "POP2005": 1161109, "REGION": 2, "SUBREGION": 11, "LON": -3.524, "LAT": 17.35 }, "geometry": { "type": "Point", "coordinates": [ -3.526269244471664, 17.358853061716371 ] } },
{ "type": "Feature", "properties": { "FIPS": "MO", "ISO2": "MA", "ISO3": "MAR", "UN": 504, "NAME": "Morocco", "AREA": 44630, "POP2005": 30494991, "REGION": 2, "SUBREGION": 15, "LON": -5.758, "LAT": 32.706 }, "geometry": { "type": "Point", "coordinates": [ -6.268992632180201, 31.920551112432914 ] } },
{ "type": "Feature", "properties": { "FIPS": "MP", "ISO2": "MU", "ISO3": "MUS", "UN": 480, "NAME": "Mauritius", "AREA": 203, "POP2005": 1241173, "REGION": 2, "SUBREGION": 14, "LON": 57.583, "LAT": -20.255 }, "geometry": { "type": "Point", "coordinates": [ 57.820624577052172, -20.174951190536749 ] } },
{ "type": "Feature", "properties": { "FIPS": "MR", "ISO2": "MR", "ISO3": "MRT", "UN": 478, "NAME": "Mauritania", "AREA": 102522, "POP2005": 2963105, "REGION": 2, "SUBREGION": 11, "LON": -10.332, "LAT": 20.26 }, "geometry": { "type": "Point", "coordinates": [ -10.347058190937307, 20.248398715236743 ] } },
{ "type": "Feature", "properties": { "FIPS": "MT", "ISO2": "MT", "ISO3": "MLT", "UN": 470, "NAME": "Malta", "AREA": 32, "POP2005": 402617, "REGION": 150, "SUBREGION": 39, "LON": 14.442, "LAT": 35.89 }, "geometry": { "type": "Point", "coordinates": [ 14.390640760273673, 35.911847330040828 ] } },
{ "type": "Feature", "properties": { "FIPS": "MU", "ISO2": "OM", "ISO3": "OMN", "UN": 512, "NAME": "Oman", "AREA": 30950, "POP2005": 2507042, "REGION": 142, "SUBREGION": 145, "LON": 57.407, "LAT": 21.656 }, "geometry": { "type": "Point", "coordinates": [ 56.099386368151293, 20.580003723673155 ] } },
{ "type": "Feature", "properties": { "FIPS": "MV", "ISO2": "MV", "ISO3": "MDV", "UN": 462, "NAME": "Maldives", "AREA": 30, "POP2005": 295297, "REGION": 142, "SUBREGION": 34, "LON": 72.92, "LAT": 3.548 }, "geometry": { "type": "Point", "coordinates": [ 73.258170976761789, 3.362065716703419 ] } },
{ "type": "Feature", "properties": { "FIPS": "MX", "ISO2": "MX", "ISO3": "MEX", "UN": 484, "NAME": "Mexico", "AREA": 190869, "POP2005": 104266392, "REGION": 19, "SUBREGION": 13, "LON": -102.535, "LAT": 23.951 }, "geometry": { "type": "Point", "coordinates": [ -102.5183214232768, 23.94912440663208 ] } },
{ "type": "Feature", "properties": { "FIPS": "MY", "ISO2": "MY", "ISO3": "MYS", "UN": 458, "NAME": "Malaysia", "AREA": 32855, "POP2005": 25652985, "REGION": 142, "SUBREGION": 35, "LON": 102.195, "LAT": 4.201 }, "geometry": { "type": "Point", "coordinates": [ 109.73544986998712, 3.766230386412011 ] } },
{ "type": "Feature", "properties": { "FIPS": "MZ", "ISO2": "MZ", "ISO3": "MOZ", "UN": 508, "NAME": "Mozambique", "AREA": 78409, "POP2005": 20532675, "REGION": 2, "SUBREGION": 14, "LON": 37.923, "LAT": -14.422 }, "geometry": { "type": "Point", "coordinates": [ 35.562686310047219, -17.249339564669732 ] } },
{ "type": "Feature", "properties": { "FIPS": "MI", "ISO2": "MW", "ISO3": "MWI", "UN": 454, "NAME": "Malawi", "AREA": 9408, "POP2005": 13226091, "REGION": 2, "SUBREGION": 14, "LON": 33.808, "LAT": -13.4 }, "geometry": { "type": "Point", "coordinates": [ 34.269042764052287, -13.190967304043799 ] } },
{ "type": "Feature", "properties": { "FIPS": "NC", "ISO2": "NC", "ISO3": "NCL", "UN": 540, "NAME": "New Caledonia", "AREA": 1828, "POP2005": 234185, "REGION": 9, "SUBREGION": 54, "LON": 165.447, "LAT": -21.359 }, "geometry": { "type": "Point", "coordinates": [ 165.68381095562225, -21.382095979326916 ] } },
{ "type": "Feature", "properties": { "FIPS": "NE", "ISO2": "NU", "ISO3": "NIU", "UN": 570, "NAME": "Niue", "AREA": 26, "POP2005": 1632, "REGION": 9, "SUBREGION": 61, "LON": -169.869, "LAT": -19.052 }, "geometry": { "type": "Point", "coordinates": [ -169.881022, -19.043517666666673 ] } },
{ "type": "Feature", "properties": { "FIPS": "NG", "ISO2": "NE", "ISO3": "NER", "UN": 562, "NAME": "Niger", "AREA": 126670, "POP2005": 1326419, "REGION": 2, "SUBREGION": 11, "LON": 9.398, "LAT": 17.426 }, "geometry": { "type": "Point", "coordinates": [ 9.426031978972643, 17.409083067935619 ] } },
{ "type": "Feature", "properties": { "FIPS": "AA", "ISO2": "AW", "ISO3": "ABW", "UN": 533, "NAME": "Aruba", "AREA": 0, "POP2005": 102897, "REGION": 19, "SUBREGION": 29, "LON": -69.977, "LAT": 12.517 }, "geometry": { "type": "Point", "coordinates": [ -70.00158, 12.525925333333333 ] } },
{ "type": "Feature", "properties": { "FIPS": "AV", "ISO2": "AI", "ISO3": "AIA", "UN": 660, "NAME": "Anguilla", "AREA": 0, "POP2005": 12256, "REGION": 19, "SUBREGION": 29, "LON": -63.032, "LAT": 18.237 }, "geometry": { "type": "Point", "coordinates": [ -63.04361, 18.221294666666662 ] } },
{ "type": "Feature", "properties": { "FIPS": "BE", "ISO2": "BE", "ISO3": "BEL", "UN": 56, "NAME": "Belgium", "AREA": 0, "POP2005": 10398049, "REGION": 150, "SUBREGION": 155, "LON": 4.664, "LAT": 50.643 }, "geometry": { "type": "Point", "coordinates": [ 4.733150873630163, 50.666488854347577 ] } },
{ "type": "Feature", "properties": { "FIPS": "HK", "ISO2": "HK", "ISO3": "HKG", "UN": 344, "NAME": "Hong Kong", "AREA": 0, "POP2005": 7057418, "REGION": 142, "SUBREGION": 30, "LON": 114.129, "LAT": 22.423 }, "geometry": { "type": "Point", "coordinates": [ 114.1248224680338, 22.38437308349037 ] } },
{ "type": "Feature", "properties": { "FIPS": "CQ", "ISO2": "MP", "ISO3": "MNP", "UN": 580, "NAME": "Northern Mariana Islands", "AREA": 0, "POP2005": 80258, "REGION": 9, "SUBREGION": 57, "LON": 145.623, "LAT": 15.005 }, "geometry": { "type": "Point", "coordinates": [ 145.57419142980027, 16.195748893629563 ] } },
{ "type": "Feature", "properties": { "FIPS": "FO", "ISO2": "FO", "ISO3": "FRO", "UN": 234, "NAME": "Faroe Islands", "AREA": 0, "POP2005": 48205, "REGION": 150, "SUBREGION": 154, "LON": -6.864, "LAT": 62.05 }, "geometry": { "type": "Point", "coordinates": [ -6.864174585581503, 62.024020931175762 ] } },
{ "type": "Feature", "properties": { "FIPS": "AN", "ISO2": "AD", "ISO3": "AND", "UN": 20, "NAME": "Andorra", "AREA": 0, "POP2005": 73483, "REGION": 150, "SUBREGION": 39, "LON": 1.576, "LAT": 42.549 }, "geometry": { "type": "Point", "coordinates": [ 1.650388, 42.560448 ] } },
{ "type": "Feature", "properties": { "FIPS": "GI", "ISO2": "GI", "ISO3": "GIB", "UN": 292, "NAME": "Gibraltar", "AREA": 0, "POP2005": 291, "REGION": 150, "SUBREGION": 39, "LON": -5.345, "LAT": 36.138 }, "geometry": { "type": "Point", "coordinates": [ -5.342845666666658, 36.146014 ] } },
{ "type": "Feature", "properties": { "FIPS": "IM", "ISO2": "IM", "ISO3": "IMN", "UN": 833, "NAME": "Isle of Man", "AREA": 0, "POP2005": 78357, "REGION": 150, "SUBREGION": 154, "LON": -4.527, "LAT": 54.229 }, "geometry": { "type": "Point", "coordinates": [ -4.508796666666655, 54.217588 ] } },
{ "type": "Feature", "properties": { "FIPS": "LU", "ISO2": "LU", "ISO3": "LUX", "UN": 442, "NAME": "Luxembourg", "AREA": 0, "POP2005": 456613, "REGION": 150, "SUBREGION": 155, "LON": 6.088, "LAT": 49.771 }, "geometry": { "type": "Point", "coordinates": [ 6.159432626848933, 49.768679912915189 ] } },
{ "type": "Feature", "properties": { "FIPS": "MC", "ISO2": "MO", "ISO3": "MAC", "UN": 446, "NAME": "Macau", "AREA": 0, "POP2005": 47309, "REGION": 142, "SUBREGION": 30, "LON": 113.545, "LAT": 22.2 }, "geometry": { "type": "Point", "coordinates": [ 113.54618566666669, 22.196839333333426 ] } },
{ "type": "Feature", "properties": { "FIPS": "MN", "ISO2": "MC", "ISO3": "MCO", "UN": 492, "NAME": "Monaco", "AREA": 0, "POP2005": 325, "REGION": 150, "SUBREGION": 155, "LON": 7.412, "LAT": 43.75 }, "geometry": { "type": "Point", "coordinates": [ 7.409817418344699, 43.750861232106921 ] } },
{ "type": "Feature", "properties": { "FIPS": null, "ISO2": "PS", "ISO3": "PSE", "UN": 275, "NAME": "Palestine", "AREA": 0, "POP2005": 3762005, "REGION": 142, "SUBREGION": 145, "LON": 35.278, "LAT": 32.037 }, "geometry": { "type": "Point", "coordinates": [ 35.219723082120517, 31.864745450866138 ] } },
{ "type": "Feature", "properties": { "FIPS": "MJ", "ISO2": "ME", "ISO3": "MNE", "UN": 499, "NAME": "Montenegro", "AREA": 0, "POP2005": 607969, "REGION": 150, "SUBREGION": 39, "LON": 19.254, "LAT": 42.792 }, "geometry": { "type": "Point", "coordinates": [ 19.273101004602676, 42.766131118563678 ] } },
{ "type": "Feature", "properties": { "FIPS": "MF", "ISO2": "YT", "ISO3": "MYT", "UN": 175, "NAME": "Mayotte", "AREA": 0, "POP2005": 0, "REGION": 2, "SUBREGION": 14, "LON": 45.155, "LAT": -12.777 }, "geometry": { "type": "Point", "coordinates": [ 45.131590705535523, -12.830911768737675 ] } },
{ "type": "Feature", "properties": { "FIPS": null, "ISO2": "AX", "ISO3": "ALA", "UN": 248, "NAME": "Åland Islands", "AREA": 0, "POP2005": 0, "REGION": 150, "SUBREGION": 154, "LON": 19.952, "LAT": 60.198 }, "geometry": { "type": "Point", "coordinates": [ 19.973563992973975, 60.201294853037432 ] } },
{ "type": "Feature", "properties": { "FIPS": "NF", "ISO2": "NF", "ISO3": "NFK", "UN": 574, "NAME": "Norfolk Island", "AREA": 0, "POP2005": 0, "REGION": 9, "SUBREGION": 53, "LON": 167.953, "LAT": -29.037 }, "geometry": { "type": "Point", "coordinates": [ 167.95839466666666, -29.037131333333306 ] } },
{ "type": "Feature", "properties": { "FIPS": "CK", "ISO2": "CC", "ISO3": "CCK", "UN": 166, "NAME": "Cocos (Keeling) Islands", "AREA": 1, "POP2005": 0, "REGION": 0, "SUBREGION": 0, "LON": 96.839, "LAT": -12.173 }, "geometry": { "type": "Point", "coordinates": [ 96.850357562390187, -12.170519952926178 ] } },
{ "type": "Feature", "properties": { "FIPS": "AY", "ISO2": "AQ", "ISO3": "ATA", "UN": 10, "NAME": "Antarctica", "AREA": 0, "POP2005": 0, "REGION": 0, "SUBREGION": 0, "LON": 21.304, "LAT": -80.446 }, "geometry": { "type": "Point", "coordinates": [ 21.595277876480576, -80.463539131084076 ] } },
{ "type": "Feature", "properties": { "FIPS": "BV", "ISO2": "BV", "ISO3": "BVT", "UN": 74, "NAME": "Bouvet Island", "AREA": 0, "POP2005": 0, "REGION": 0, "SUBREGION": 0, "LON": 3.412, "LAT": -54.422 }, "geometry": { "type": "Point", "coordinates": [ 3.403981333333386, -54.42158 ] } },
{ "type": "Feature", "properties": { "FIPS": "FS", "ISO2": "TF", "ISO3": "ATF", "UN": 260, "NAME": "French Southern and Antarctic Lands", "AREA": 0, "POP2005": 0, "REGION": 0, "SUBREGION": 0, "LON": 69.117, "LAT": -49.302 }, "geometry": { "type": "Point", "coordinates": [ 68.976460365326872, -49.166552190025776 ] } },
{ "type": "Feature", "properties": { "FIPS": "HM", "ISO2": "HM", "ISO3": "HMD", "UN": 334, "NAME": "Heard Island and McDonald Islands", "AREA": 0, "POP2005": 0, "REGION": 0, "SUBREGION": 0, "LON": 73.507, "LAT": -53.111 }, "geometry": { "type": "Point", "coordinates": [ 73.494252666666654, -53.10233 ] } },
{ "type": "Feature", "properties": { "FIPS": "IO", "ISO2": "IO", "ISO3": "IOT", "UN": 86, "NAME": "British Indian Ocean Territory", "AREA": 0, "POP2005": 0, "REGION": 0, "SUBREGION": 0, "LON": 72.416, "LAT": -7.335 }, "geometry": { "type": "Point", "coordinates": [ 72.363983979133764, -7.179896845718031 ] } },
{ "type": "Feature", "properties": { "FIPS": "KT", "ISO2": "CX", "ISO3": "CXR", "UN": 162, "NAME": "Christmas Island", "AREA": 0, "POP2005": 0, "REGION": 0, "SUBREGION": 0, "LON": 105.704, "LAT": -10.444 }, "geometry": { "type": "Point", "coordinates": [ 105.6890006666667, -10.44412 ] } },
{ "type": "Feature", "properties": { "FIPS": null, "ISO2": "UM", "ISO3": "UMI", "UN": 581, "NAME": "United States Minor Outlying Islands", "AREA": 0, "POP2005": 0, "REGION": 0, "SUBREGION": 0, "LON": -160.027, "LAT": -0.385 }, "geometry": { "type": "Point", "coordinates": [ -48.65795640891362, 16.247566554780608 ] } },
{ "type": "Feature", "properties": { "FIPS": "NH", "ISO2": "VU", "ISO3": "VUT", "UN": 548, "NAME": "Vanuatu", "AREA": 1219, "POP2005": 215366, "REGION": 9, "SUBREGION": 54, "LON": 166.899, "LAT": -15.376 }, "geometry": { "type": "Point", "coordinates": [ 167.58517243755838, -16.10445213700476 ] } },
{ "type": "Feature", "properties": { "FIPS": "NI", "ISO2": "NG", "ISO3": "NGA", "UN": 566, "NAME": "Nigeria", "AREA": 91077, "POP2005": 141356083, "REGION": 2, "SUBREGION": 11, "LON": 8.105, "LAT": 9.594 }, "geometry": { "type": "Point", "coordinates": [ 8.115104062880269, 9.58811547549946 ] } },
{ "type": "Feature", "properties": { "FIPS": "NL", "ISO2": "NL", "ISO3": "NLD", "UN": 528, "NAME": "Netherlands", "AREA": 3388, "POP2005": 1632769, "REGION": 150, "SUBREGION": 155, "LON": 5.389, "LAT": 52.077 }, "geometry": { "type": "Point", "coordinates": [ 5.639291909251281, 52.25891879994262 ] } },
{ "type": "Feature", "properties": { "FIPS": "NO", "ISO2": "NO", "ISO3": "NOR", "UN": 578, "NAME": "Norway", "AREA": 30625, "POP2005": 4638836, "REGION": 150, "SUBREGION": 154, "LON": 8.74, "LAT": 61.152 }, "geometry": { "type": "Point", "coordinates": [ 13.982010667449908, 64.279310163643643 ] } },
{ "type": "Feature", "properties": { "FIPS": "NP", "ISO2": "NP", "ISO3": "NPL", "UN": 524, "NAME": "Nepal", "AREA": 14300, "POP2005": 27093656, "REGION": 142, "SUBREGION": 34, "LON": 83.939, "LAT": 28.253 }, "geometry": { "type": "Point", "coordinates": [ 83.933540228620842, 28.266562203579554 ] } },
{ "type": "Feature", "properties": { "FIPS": "NR", "ISO2": "NR", "ISO3": "NRU", "UN": 520, "NAME": "Nauru", "AREA": 2, "POP2005": 10111, "REGION": 9, "SUBREGION": 57, "LON": 166.93, "LAT": -0.522 }, "geometry": { "type": "Point", "coordinates": [ 166.9394226666667, -0.517314666666645 ] } },
{ "type": "Feature", "properties": { "FIPS": "NS", "ISO2": "SR", "ISO3": "SUR", "UN": 740, "NAME": "Suriname", "AREA": 15600, "POP2005": 452468, "REGION": 19, "SUBREGION": 5, "LON": -55.912, "LAT": 4.127 }, "geometry": { "type": "Point", "coordinates": [ -55.904896786901659, 4.115480851752033 ] } },
{ "type": "Feature", "properties": { "FIPS": "NU", "ISO2": "NI", "ISO3": "NIC", "UN": 558, "NAME": "Nicaragua", "AREA": 12140, "POP2005": 5462539, "REGION": 19, "SUBREGION": 13, "LON": -85.034, "LAT": 12.84 }, "geometry": { "type": "Point", "coordinates": [ -85.049844240631231, 12.822063424310699 ] } },
{ "type": "Feature", "properties": { "FIPS": "NZ", "ISO2": "NZ", "ISO3": "NZL", "UN": 554, "NAME": "New Zealand", "AREA": 26799, "POP2005": 4097112, "REGION": 9, "SUBREGION": 53, "LON": 172.235, "LAT": -42.634 }, "geometry": { "type": "Point", "coordinates": [ 172.21912859094707, -41.745968937280701 ] } },
{ "type": "Feature", "properties": { "FIPS": "PA", "ISO2": "PY", "ISO3": "PRY", "UN": 600, "NAME": "Paraguay", "AREA": 39730, "POP2005": 5904342, "REGION": 19, "SUBREGION": 5, "LON": -58.391, "LAT": -23.236 }, "geometry": { "type": "Point", "coordinates": [ -58.386011505119953, -23.259387707699062 ] } },
{ "type": "Feature", "properties": { "FIPS": "PE", "ISO2": "PE", "ISO3": "PER", "UN": 604, "NAME": "Peru", "AREA": 128000, "POP2005": 27274266, "REGION": 19, "SUBREGION": 5, "LON": -75.552, "LAT": -9.326 }, "geometry": { "type": "Point", "coordinates": [ -74.360979229467702, -9.185526989435008 ] } },
{ "type": "Feature", "properties": { "FIPS": "PK", "ISO2": "PK", "ISO3": "PAK", "UN": 586, "NAME": "Pakistan", "AREA": 77088, "POP2005": 158080591, "REGION": 142, "SUBREGION": 34, "LON": 69.386, "LAT": 29.967 }, "geometry": { "type": "Point", "coordinates": [ 69.398666266459756, 29.976437647380092 ] } },
{ "type": "Feature", "properties": { "FIPS": "PL", "ISO2": "PL", "ISO3": "POL", "UN": 616, "NAME": "Poland", "AREA": 30629, "POP2005": 38195558, "REGION": 150, "SUBREGION": 151, "LON": 19.401, "LAT": 52.125 }, "geometry": { "type": "Point", "coordinates": [ 19.373247568735266, 52.127498922996025 ] } },
{ "type": "Feature", "properties": { "FIPS": "PM", "ISO2": "PA", "ISO3": "PAN", "UN": 591, "NAME": "Panama", "AREA": 7443, "POP2005": 3231502, "REGION": 19, "SUBREGION": 13, "LON": -80.92, "LAT": 8.384 }, "geometry": { "type": "Point", "coordinates": [ -80.066622015152618, 8.507978125522465 ] } },
{ "type": "Feature", "properties": { "FIPS": "PO", "ISO2": "PT", "ISO3": "PRT", "UN": 620, "NAME": "Portugal", "AREA": 9150, "POP2005": 10528226, "REGION": 150, "SUBREGION": 39, "LON": -8.058, "LAT": 40.309 }, "geometry": { "type": "Point", "coordinates": [ -8.077508588514304, 39.654259139143655 ] } },
{ "type": "Feature", "properties": { "FIPS": "PP", "ISO2": "PG", "ISO3": "PNG", "UN": 598, "NAME": "Papua New Guinea", "AREA": 45286, "POP2005": 6069715, "REGION": 9, "SUBREGION": 54, "LON": 143.459, "LAT": -5.949 }, "geometry": { "type": "Point", "coordinates": [ 145.1019458852162, -6.48176242768792 ] } },
{ "type": "Feature", "properties": { "FIPS": "PU", "ISO2": "GW", "ISO3": "GNB", "UN": 624, "NAME": "Guinea-Bissau", "AREA": 2812, "POP2005": 1596929, "REGION": 2, "SUBREGION": 11, "LON": -14.651, "LAT": 12.125 }, "geometry": { "type": "Point", "coordinates": [ -14.941539071758484, 12.046717197613452 ] } },
{ "type": "Feature", "properties": { "FIPS": "QA", "ISO2": "QA", "ISO3": "QAT", "UN": 634, "NAME": "Qatar", "AREA": 1100, "POP2005": 796186, "REGION": 142, "SUBREGION": 145, "LON": 51.191, "LAT": 25.316 }, "geometry": { "type": "Point", "coordinates": [ 51.224900308514705, 25.316793479674839 ] } },
{ "type": "Feature", "properties": { "FIPS": "RE", "ISO2": "RE", "ISO3": "REU", "UN": 638, "NAME": "Reunion", "AREA": 250, "POP2005": 785159, "REGION": 2, "SUBREGION": 14, "LON": 55.538, "LAT": -21.122 }, "geometry": { "type": "Point", "coordinates": [ 55.53462733333334, -21.133242333333303 ] } },
{ "type": "Feature", "properties": { "FIPS": "RO", "ISO2": "RO", "ISO3": "ROU", "UN": 642, "NAME": "Romania", "AREA": 22987, "POP2005": 21627557, "REGION": 150, "SUBREGION": 151, "LON": 24.969, "LAT": 45.844 }, "geometry": { "type": "Point", "coordinates": [ 24.975056730022899, 45.806202893927754 ] } },
{ "type": "Feature", "properties": { "FIPS": "MD", "ISO2": "MD", "ISO3": "MDA", "UN": 498, "NAME": "Republic of Moldova", "AREA": 3288, "POP2005": 3876661, "REGION": 150, "SUBREGION": 151, "LON": 28.599, "LAT": 47.193 }, "geometry": { "type": "Point", "coordinates": [ 28.447516885970334, 47.2203163901358 ] } },
{ "type": "Feature", "properties": { "FIPS": "RP", "ISO2": "PH", "ISO3": "PHL", "UN": 608, "NAME": "Philippines", "AREA": 29817, "POP2005": 84566163, "REGION": 142, "SUBREGION": 35, "LON": 122.466, "LAT": 11.118 }, "geometry": { "type": "Point", "coordinates": [ 122.92087345685975, 11.821778252614386 ] } },
{ "type": "Feature", "properties": { "FIPS": "RQ", "ISO2": "PR", "ISO3": "PRI", "UN": 630, "NAME": "Puerto Rico", "AREA": 887, "POP2005": 3946779, "REGION": 19, "SUBREGION": 29, "LON": -66.466, "LAT": 18.221 }, "geometry": { "type": "Point", "coordinates": [ -66.655065864261175, 18.227571206381636 ] } },
{ "type": "Feature", "properties": { "FIPS": "RS", "ISO2": "RU", "ISO3": "RUS", "UN": 643, "NAME": "Russia", "AREA": 1638094, "POP2005": 143953092, "REGION": 150, "SUBREGION": 151, "LON": 96.689, "LAT": 61.988 }, "geometry": { "type": "Point", "coordinates": [ 96.789791330850377, 61.912438642422671 ] } },
{ "type": "Feature", "properties": { "FIPS": "RW", "ISO2": "RW", "ISO3": "RWA", "UN": 646, "NAME": "Rwanda", "AREA": 2467, "POP2005": 9233793, "REGION": 2, "SUBREGION": 14, "LON": 29.917, "LAT": -1.998 }, "geometry": { "type": "Point", "coordinates": [ 29.89723707997215, -2.015984666807257 ] } },
{ "type": "Feature", "properties": { "FIPS": "SA", "ISO2": "SA", "ISO3": "SAU", "UN": 682, "NAME": "Saudi Arabia", "AREA": 214969, "POP2005": 2361236, "REGION": 142, "SUBREGION": 145, "LON": 44.585, "LAT": 24.023 }, "geometry": { "type": "Point", "coordinates": [ 44.595163791782994, 24.035879789934349 ] } },
{ "type": "Feature", "properties": { "FIPS": "SC", "ISO2": "KN", "ISO3": "KNA", "UN": 659, "NAME": "Saint Kitts and Nevis", "AREA": 36, "POP2005": 49138, "REGION": 19, "SUBREGION": 29, "LON": -62.769, "LAT": 17.34 }, "geometry": { "type": "Point", "coordinates": [ -62.691410881742542, 17.260448675915036 ] } },
{ "type": "Feature", "properties": { "FIPS": "SE", "ISO2": "SC", "ISO3": "SYC", "UN": 690, "NAME": "Seychelles", "AREA": 46, "POP2005": 85532, "REGION": 2, "SUBREGION": 14, "LON": 55.474, "LAT": -4.647 }, "geometry": { "type": "Point", "coordinates": [ 51.214145628198686, -6.906442837815589 ] } },
{ "type": "Feature", "properties": { "FIPS": "SF", "ISO2": "ZA", "ISO3": "ZAF", "UN": 710, "NAME": "South Africa", "AREA": 121447, "POP2005": 47938663, "REGION": 2, "SUBREGION": 18, "LON": 23.121, "LAT": -30.558 }, "geometry": { "type": "Point", "coordinates": [ 25.12092409815423, -28.99493661109603 ] } },
{ "type": "Feature", "properties": { "FIPS": "LT", "ISO2": "LS", "ISO3": "LSO", "UN": 426, "NAME": "Lesotho", "AREA": 3035, "POP2005": 1980831, "REGION": 2, "SUBREGION": 18, "LON": 28.243, "LAT": -29.581 }, "geometry": { "type": "Point", "coordinates": [ 28.248313015094304, -29.606358605239787 ] } },
{ "type": "Feature", "properties": { "FIPS": "BC", "ISO2": "BW", "ISO3": "BWA", "UN": 72, "NAME": "Botswana", "AREA": 56673, "POP2005": 1835938, "REGION": 2, "SUBREGION": 18, "LON": 23.815, "LAT": -22.182 }, "geometry": { "type": "Point", "coordinates": [ 23.802852403418957, -22.182023071004 ] } },
{ "type": "Feature", "properties": { "FIPS": "SG", "ISO2": "SN", "ISO3": "SEN", "UN": 686, "NAME": "Senegal", "AREA": 19253, "POP2005": 1177034, "REGION": 2, "SUBREGION": 11, "LON": -14.881, "LAT": 15.013 }, "geometry": { "type": "Point", "coordinates": [ -14.457497600380645, 14.36589942388998 ] } },
{ "type": "Feature", "properties": { "FIPS": "SI", "ISO2": "SI", "ISO3": "SVN", "UN": 705, "NAME": "Slovenia", "AREA": 2014, "POP2005": 1999425, "REGION": 150, "SUBREGION": 39, "LON": 14.827, "LAT": 46.124 }, "geometry": { "type": "Point", "coordinates": [ 14.883059494646899, 46.143912731931366 ] } },
{ "type": "Feature", "properties": { "FIPS": "SL", "ISO2": "SL", "ISO3": "SLE", "UN": 694, "NAME": "Sierra Leone", "AREA": 7162, "POP2005": 5586403, "REGION": 2, "SUBREGION": 11, "LON": -11.792, "LAT": 8.56 }, "geometry": { "type": "Point", "coordinates": [ -11.843636510413965, 8.597275960698369 ] } },
{ "type": "Feature", "properties": { "FIPS": "SN", "ISO2": "SG", "ISO3": "SGP", "UN": 702, "NAME": "Singapore", "AREA": 67, "POP2005": 4327468, "REGION": 142, "SUBREGION": 35, "LON": 103.808, "LAT": 1.351 }, "geometry": { "type": "Point", "coordinates": [ 103.781647, 1.376096666666655 ] } },
{ "type": "Feature", "properties": { "FIPS": "SO", "ISO2": "SO", "ISO3": "SOM", "UN": 706, "NAME": "Somalia", "AREA": 62734, "POP2005": 8196395, "REGION": 2, "SUBREGION": 14, "LON": 48.316, "LAT": 9.774 }, "geometry": { "type": "Point", "coordinates": [ 45.855278591485678, 6.048906037811578 ] } },
{ "type": "Feature", "properties": { "FIPS": "SP", "ISO2": "ES", "ISO3": "ESP", "UN": 724, "NAME": "Spain", "AREA": 49904, "POP2005": 43397491, "REGION": 150, "SUBREGION": 39, "LON": -3.649, "LAT": 40.227 }, "geometry": { "type": "Point", "coordinates": [ -3.602339941395329, 40.26889635537767 ] } },
{ "type": "Feature", "properties": { "FIPS": "ST", "ISO2": "LC", "ISO3": "LCA", "UN": 662, "NAME": "Saint Lucia", "AREA": 61, "POP2005": 16124, "REGION": 19, "SUBREGION": 29, "LON": -60.969, "LAT": 13.898 }, "geometry": { "type": "Point", "coordinates": [ -60.988151666666624, 13.899629 ] } },
{ "type": "Feature", "properties": { "FIPS": "SU", "ISO2": "SD", "ISO3": "SDN", "UN": 736, "NAME": "Sudan", "AREA": 237600, "POP2005": 36899747, "REGION": 2, "SUBREGION": 15, "LON": 30.05, "LAT": 13.832 }, "geometry": { "type": "Point", "coordinates": [ 30.06022975605017, 13.82960911701387 ] } },
{ "type": "Feature", "properties": { "FIPS": "SW", "ISO2": "SE", "ISO3": "SWE", "UN": 752, "NAME": "Sweden", "AREA": 41033, "POP2005": 9038049, "REGION": 150, "SUBREGION": 154, "LON": 15.27, "LAT": 62.011 }, "geometry": { "type": "Point", "coordinates": [ 16.709590933942604, 62.823907609559264 ] } },
{ "type": "Feature", "properties": { "FIPS": "SY", "ISO2": "SY", "ISO3": "SYR", "UN": 760, "NAME": "Syrian Arab Republic", "AREA": 18378, "POP2005": 18893881, "REGION": 142, "SUBREGION": 145, "LON": 38.506, "LAT": 35.013 }, "geometry": { "type": "Point", "coordinates": [ 38.449342951255808, 34.997562395749142 ] } },
{ "type": "Feature", "properties": { "FIPS": "SZ", "ISO2": "CH", "ISO3": "CHE", "UN": 756, "NAME": "Switzerland", "AREA": 4000, "POP2005": 7424389, "REGION": 150, "SUBREGION": 155, "LON": 7.908, "LAT": 46.861 }, "geometry": { "type": "Point", "coordinates": [ 8.224403733285429, 46.81265418918089 ] } },
{ "type": "Feature", "properties": { "FIPS": "TD", "ISO2": "TT", "ISO3": "TTO", "UN": 780, "NAME": "Trinidad and Tobago", "AREA": 513, "POP2005": 1323722, "REGION": 19, "SUBREGION": 29, "LON": -61.253, "LAT": 10.468 }, "geometry": { "type": "Point", "coordinates": [ -61.270885973299926, 10.455121293499646 ] } },
{ "type": "Feature", "properties": { "FIPS": "TH", "ISO2": "TH", "ISO3": "THA", "UN": 764, "NAME": "Thailand", "AREA": 51089, "POP2005": 63002911, "REGION": 142, "SUBREGION": 35, "LON": 100.844, "LAT": 15.7 }, "geometry": { "type": "Point", "coordinates": [ 101.04712039037769, 15.157260857055602 ] } },
{ "type": "Feature", "properties": { "FIPS": "TI", "ISO2": "TJ", "ISO3": "TJK", "UN": 762, "NAME": "Tajikistan", "AREA": 13996, "POP2005": 6550213, "REGION": 142, "SUBREGION": 143, "LON": 69.42, "LAT": 38.665 }, "geometry": { "type": "Point", "coordinates": [ 71.071093004995561, 38.541257663525322 ] } },
{ "type": "Feature", "properties": { "FIPS": "TL", "ISO2": "TK", "ISO3": "TKL", "UN": 772, "NAME": "Tokelau", "AREA": 1, "POP2005": 1401, "REGION": 9, "SUBREGION": 61, "LON": -171.853, "LAT": -9.193 }, "geometry": { "type": "Point", "coordinates": [ -171.8391660102767, -9.098552625624302 ] } },
{ "type": "Feature", "properties": { "FIPS": "TN", "ISO2": "TO", "ISO3": "TON", "UN": 776, "NAME": "Tonga", "AREA": 72, "POP2005": 99361, "REGION": 9, "SUBREGION": 61, "LON": -175.185, "LAT": -21.202 }, "geometry": { "type": "Point", "coordinates": [ -174.74321688217847, -19.809875484453649 ] } },
{ "type": "Feature", "properties": { "FIPS": "TO", "ISO2": "TG", "ISO3": "TGO", "UN": 768, "NAME": "Togo", "AREA": 5439, "POP2005": 6238572, "REGION": 2, "SUBREGION": 11, "LON": 1.081, "LAT": 8.799 }, "geometry": { "type": "Point", "coordinates": [ 0.931766011364215, 8.618468300949813 ] } },
{ "type": "Feature", "properties": { "FIPS": "TP", "ISO2": "ST", "ISO3": "STP", "UN": 678, "NAME": "Sao Tome and Principe", "AREA": 96, "POP2005": 152622, "REGION": 2, "SUBREGION": 17, "LON": 6.629, "LAT": 0.201 }, "geometry": { "type": "Point", "coordinates": [ 6.705388973992315, 0.472920988866199 ] } },
{ "type": "Feature", "properties": { "FIPS": "TS", "ISO2": "TN", "ISO3": "TUN", "UN": 788, "NAME": "Tunisia", "AREA": 15536, "POP2005": 10104685, "REGION": 2, "SUBREGION": 15, "LON": 9.596, "LAT": 35.383 }, "geometry": { "type": "Point", "coordinates": [ 9.548714046770035, 34.11118726556095 ] } },
{ "type": "Feature", "properties": { "FIPS": "TU", "ISO2": "TR", "ISO3": "TUR", "UN": 792, "NAME": "Turkey", "AREA": 76963, "POP2005": 72969723, "REGION": 142, "SUBREGION": 145, "LON": 35.179, "LAT": 39.061 }, "geometry": { "type": "Point", "coordinates": [ 35.239908731747711, 39.038199573505686 ] } },
{ "type": "Feature", "properties": { "FIPS": "TV", "ISO2": "TV", "ISO3": "TUV", "UN": 798, "NAME": "Tuvalu", "AREA": 3, "POP2005": 10441, "REGION": 9, "SUBREGION": 61, "LON": 179.219, "LAT": -8.514 }, "geometry": { "type": "Point", "coordinates": [ 178.17375047426677, -7.555771108653671 ] } },
{ "type": "Feature", "properties": { "FIPS": "TX", "ISO2": "TM", "ISO3": "TKM", "UN": 795, "NAME": "Turkmenistan", "AREA": 46993, "POP2005": 4833266, "REGION": 142, "SUBREGION": 143, "LON": 59.384, "LAT": 39.122 }, "geometry": { "type": "Point", "coordinates": [ 59.412346974516296, 39.127085211024912 ] } },
{ "type": "Feature", "properties": { "FIPS": "TZ", "ISO2": "TZ", "ISO3": "TZA", "UN": 834, "NAME": "United Republic of Tanzania", "AREA": 88359, "POP2005": 38477873, "REGION": 2, "SUBREGION": 14, "LON": 34.823, "LAT": -6.27 }, "geometry": { "type": "Point", "coordinates": [ 34.79811382815749, -6.27085069882545 ] } },
{ "type": "Feature", "properties": { "FIPS": "UG", "ISO2": "UG", "ISO3": "UGA", "UN": 800, "NAME": "Uganda", "AREA": 19710, "POP2005": 28947181, "REGION": 2, "SUBREGION": 14, "LON": 32.386, "LAT": 1.28 }, "geometry": { "type": "Point", "coordinates": [ 32.383906821659394, 1.290960045371949 ] } },
{ "type": "Feature", "properties": { "FIPS": "UK", "ISO2": "GB", "ISO3": "GBR", "UN": 826, "NAME": "United Kingdom", "AREA": 24193, "POP2005": 60244834, "REGION": 150, "SUBREGION": 154, "LON": -1.6, "LAT": 53.0 }, "geometry": { "type": "Point", "coordinates": [ -2.844126636949559, 54.049161868741315 ] } },
{ "type": "Feature", "properties": { "FIPS": "UP", "ISO2": "UA", "ISO3": "UKR", "UN": 804, "NAME": "Ukraine", "AREA": 57935, "POP2005": 46917544, "REGION": 150, "SUBREGION": 151, "LON": 31.388, "LAT": 49.016 }, "geometry": { "type": "Point", "coordinates": [ 31.384006246576291, 49.018043723097399 ] } },
{ "type": "Feature", "properties": { "FIPS": "US", "ISO2": "US", "ISO3": "USA", "UN": 840, "NAME": "United States", "AREA": 915896, "POP2005": 299846449, "REGION": 19, "SUBREGION": 21, "LON": -98.606, "LAT": 39.622 }, "geometry": { "type": "Point", "coordinates": [ -101.61146357167712, 39.084074586538989 ] } },
{ "type": "Feature", "properties": { "FIPS": "UV", "ISO2": "BF", "ISO3": "BFA", "UN": 854, "NAME": "Burkina Faso", "AREA": 27360, "POP2005": 13933363, "REGION": 2, "SUBREGION": 11, "LON": -1.74, "LAT": 12.278 }, "geometry": { "type": "Point", "coordinates": [ -1.759908467579859, 12.271678362437241 ] } },
{ "type": "Feature", "properties": { "FIPS": "UY", "ISO2": "UY", "ISO3": "URY", "UN": 858, "NAME": "Uruguay", "AREA": 17502, "POP2005": 3325727, "REGION": 19, "SUBREGION": 5, "LON": -56.012, "LAT": -32.8 }, "geometry": { "type": "Point", "coordinates": [ -55.999070674808848, -32.790599155428218 ] } },
{ "type": "Feature", "properties": { "FIPS": "UZ", "ISO2": "UZ", "ISO3": "UZB", "UN": 860, "NAME": "Uzbekistan", "AREA": 42540, "POP2005": 26593123, "REGION": 142, "SUBREGION": 143, "LON": 63.17, "LAT": 41.75 }, "geometry": { "type": "Point", "coordinates": [ 63.225664788714482, 41.73159774563792 ] } },
{ "type": "Feature", "properties": { "FIPS": "VC", "ISO2": "VC", "ISO3": "VCT", "UN": 670, "NAME": "Saint Vincent and the Grenadines", "AREA": 39, "POP2005": 119137, "REGION": 19, "SUBREGION": 29, "LON": -61.194, "LAT": 13.248 }, "geometry": { "type": "Point", "coordinates": [ -61.221526208082054, 13.192709480327432 ] } },
{ "type": "Feature", "properties": { "FIPS": "VE", "ISO2": "VE", "ISO3": "VEN", "UN": 862, "NAME": "Venezuela", "AREA": 88205, "POP2005": 26725573, "REGION": 19, "SUBREGION": 5, "LON": -66.166, "LAT": 7.125 }, "geometry": { "type": "Point", "coordinates": [ -66.176111031617495, 7.103026981386752 ] } },
{ "type": "Feature", "properties": { "FIPS": "VI", "ISO2": "VG", "ISO3": "VGB", "UN": 92, "NAME": "British Virgin Islands", "AREA": 15, "POP2005": 22016, "REGION": 19, "SUBREGION": 29, "LON": -64.39, "LAT": 18.483 }, "geometry": { "type": "Point", "coordinates": [ -64.44408851597224, 18.541517346403737 ] } },
{ "type": "Feature", "properties": { "FIPS": "VM", "ISO2": "VN", "ISO3": "VNM", "UN": 704, "NAME": "Viet Nam", "AREA": 32549, "POP2005": 85028643, "REGION": 142, "SUBREGION": 35, "LON": 105.314, "LAT": 21.491 }, "geometry": { "type": "Point", "coordinates": [ 106.30944790135797, 16.688505742283741 ] } },
{ "type": "Feature", "properties": { "FIPS": "VQ", "ISO2": "VI", "ISO3": "VIR", "UN": 850, "NAME": "United States Virgin Islands", "AREA": 35, "POP2005": 111408, "REGION": 19, "SUBREGION": 29, "LON": -64.785, "LAT": 17.741 }, "geometry": { "type": "Point", "coordinates": [ -64.772771952022381, 17.937828593221752 ] } },
{ "type": "Feature", "properties": { "FIPS": "WA", "ISO2": "NA", "ISO3": "NAM", "UN": 516, "NAME": "Namibia", "AREA": 82329, "POP2005": 2019677, "REGION": 2, "SUBREGION": 18, "LON": 17.218, "LAT": -22.133 }, "geometry": { "type": "Point", "coordinates": [ 17.204869212920034, -22.14435902038586 ] } },
{ "type": "Feature", "properties": { "FIPS": "WF", "ISO2": "WF", "ISO3": "WLF", "UN": 876, "NAME": "Wallis and Futuna Islands", "AREA": 14, "POP2005": 15079, "REGION": 9, "SUBREGION": 61, "LON": -178.131, "LAT": -14.289 }, "geometry": { "type": "Point", "coordinates": [ -177.33352656295546, -13.885290994427216 ] } },
{ "type": "Feature", "properties": { "FIPS": "WS", "ISO2": "WS", "ISO3": "WSM", "UN": 882, "NAME": "Samoa", "AREA": 283, "POP2005": 183845, "REGION": 9, "SUBREGION": 61, "LON": -172.414, "LAT": -13.652 }, "geometry": { "type": "Point", "coordinates": [ -172.21494251830759, -13.703505411925274 ] } },
{ "type": "Feature", "properties": { "FIPS": "WZ", "ISO2": "SZ", "ISO3": "SWZ", "UN": 748, "NAME": "Swaziland", "AREA": 1720, "POP2005": 1124529, "REGION": 2, "SUBREGION": 18, "LON": 31.497, "LAT": -26.562 }, "geometry": { "type": "Point", "coordinates": [ 31.507276535374864, -26.576980413201497 ] } },
{ "type": "Feature", "properties": { "FIPS": "YM", "ISO2": "YE", "ISO3": "YEM", "UN": 887, "NAME": "Yemen", "AREA": 52797, "POP2005": 21095679, "REGION": 142, "SUBREGION": 145, "LON": 48.355, "LAT": 15.807 }, "geometry": { "type": "Point", "coordinates": [ 47.55351974301206, 15.805947888949683 ] } },
{ "type": "Feature", "properties": { "FIPS": "ZA", "ISO2": "ZM", "ISO3": "ZMB", "UN": 894, "NAME": "Zambia", "AREA": 74339, "POP2005": 11478317, "REGION": 2, "SUBREGION": 14, "LON": 26.32, "LAT": -14.614 }, "geometry": { "type": "Point", "coordinates": [ 27.803161167868627, -13.44350924382686 ] } },
{ "type": "Feature", "properties": { "FIPS": "ZI", "ISO2": "ZW", "ISO3": "ZWE", "UN": 716, "NAME": "Zimbabwe", "AREA": 38685, "POP2005": 13119679, "REGION": 2, "SUBREGION": 14, "LON": 29.872, "LAT": -19.0 }, "geometry": { "type": "Point", "coordinates": [ 29.877719166096092, -19.001585928977072 ] } },
{ "type": "Feature", "properties": { "FIPS": "ID", "ISO2": "ID", "ISO3": "IDN", "UN": 360, "NAME": "Indonesia", "AREA": 181157, "POP2005": 226063044, "REGION": 142, "SUBREGION": 35, "LON": 114.252, "LAT": -0.976 }, "geometry": { "type": "Point", "coordinates": [ 117.21189685667564, -2.176954716313607 ] } },
{ "type": "Feature", "properties": { "FIPS": "GP", "ISO2": "GP", "ISO3": "GLP", "UN": 312, "NAME": "Guadeloupe", "AREA": 169, "POP2005": 438403, "REGION": 19, "SUBREGION": 29, "LON": -61.441, "LAT": 16.286 }, "geometry": { "type": "Point", "coordinates": [ -61.600708435577381, 16.2112592475656 ] } },
{ "type": "Feature", "properties": { "FIPS": "NT", "ISO2": "AN", "ISO3": "ANT", "UN": 530, "NAME": "Netherlands Antilles", "AREA": 80, "POP2005": 186392, "REGION": 19, "SUBREGION": 29, "LON": -68.87, "LAT": 12.123 }, "geometry": { "type": "Point", "coordinates": [ -68.116184771819192, 12.405880362859136 ] } },
{ "type": "Feature", "properties": { "FIPS": "AE", "ISO2": "AE", "ISO3": "ARE", "UN": 784, "NAME": "United Arab Emirates", "AREA": 8360, "POP2005": 4104291, "REGION": 142, "SUBREGION": 145, "LON": 54.163, "LAT": 23.549 }, "geometry": { "type": "Point", "coordinates": [ 54.383988432401225, 23.925916985066003 ] } },
{ "type": "Feature", "properties": { "FIPS": "TT", "ISO2": "TL", "ISO3": "TLS", "UN": 626, "NAME": "Timor-Leste", "AREA": 1487, "POP2005": 1067285, "REGION": 142, "SUBREGION": 35, "LON": 125.878, "LAT": -8.822 }, "geometry": { "type": "Point", "coordinates": [ 125.81519109481214, -8.853479634849839 ] } },
{ "type": "Feature", "properties": { "FIPS": "PC", "ISO2": "PN", "ISO3": "PCN", "UN": 612, "NAME": "Pitcairn Islands", "AREA": 0, "POP2005": 5, "REGION": 9, "SUBREGION": 61, "LON": -128.316, "LAT": -24.366 }, "geometry": { "type": "Point", "coordinates": [ -128.44597138227348, -24.516372516852361 ] } },
{ "type": "Feature", "properties": { "FIPS": "PS", "ISO2": "PW", "ISO3": "PLW", "UN": 585, "NAME": "Palau", "AREA": 0, "POP2005": 20127, "REGION": 9, "SUBREGION": 57, "LON": 134.57, "LAT": 7.501 }, "geometry": { "type": "Point", "coordinates": [ 134.48121490914883, 7.395899333915352 ] } },
{ "type": "Feature", "properties": { "FIPS": "RM", "ISO2": "MH", "ISO3": "MHL", "UN": 584, "NAME": "Marshall Islands", "AREA": 0, "POP2005": 5672, "REGION": 9, "SUBREGION": 57, "LON": 168.963, "LAT": 7.595 }, "geometry": { "type": "Point", "coordinates": [ 168.46250063409607, 8.614654105148134 ] } },
{ "type": "Feature", "properties": { "FIPS": "SB", "ISO2": "PM", "ISO3": "SPM", "UN": 666, "NAME": "Saint Pierre and Miquelon", "AREA": 0, "POP2005": 6346, "REGION": 19, "SUBREGION": 21, "LON": -56.325, "LAT": 47.042 }, "geometry": { "type": "Point", "coordinates": [ -56.326863124813947, 46.946107677795723 ] } },
{ "type": "Feature", "properties": { "FIPS": "SH", "ISO2": "SH", "ISO3": "SHN", "UN": 654, "NAME": "Saint Helena", "AREA": 0, "POP2005": 6399, "REGION": 2, "SUBREGION": 11, "LON": -5.71, "LAT": -15.953 }, "geometry": { "type": "Point", "coordinates": [ -9.996338429267517, -23.748817926979683 ] } },
{ "type": "Feature", "properties": { "FIPS": "SM", "ISO2": "SM", "ISO3": "SMR", "UN": 674, "NAME": "San Marino", "AREA": 0, "POP2005": 30214, "REGION": 150, "SUBREGION": 39, "LON": 12.46, "LAT": 43.942 }, "geometry": { "type": "Point", "coordinates": [ 12.461654, 43.947001 ] } },
{ "type": "Feature", "properties": { "FIPS": "TK", "ISO2": "TC", "ISO3": "TCA", "UN": 796, "NAME": "Turks and Caicos Islands", "AREA": 0, "POP2005": 24459, "REGION": 19, "SUBREGION": 29, "LON": -71.95, "LAT": 21.902 }, "geometry": { "type": "Point", "coordinates": [ -71.835740118884729, 21.80953002035692 ] } },
{ "type": "Feature", "properties": { "FIPS": "WI", "ISO2": "EH", "ISO3": "ESH", "UN": 732, "NAME": "Western Sahara", "AREA": 0, "POP2005": 440428, "REGION": 2, "SUBREGION": 15, "LON": -13.706, "LAT": 24.554 }, "geometry": { "type": "Point", "coordinates": [ -13.127856864808741, 24.658872257052398 ] } },
{ "type": "Feature", "properties": { "FIPS": "RB", "ISO2": "RS", "ISO3": "SRB", "UN": 688, "NAME": "Serbia", "AREA": 0, "POP2005": 9863026, "REGION": 150, "SUBREGION": 39, "LON": 20.806, "LAT": 44.032 }, "geometry": { "type": "Point", "coordinates": [ 20.826811305284405, 43.992060507462455 ] } },
{ "type": "Feature", "properties": { "FIPS": "VT", "ISO2": "VA", "ISO3": "VAT", "UN": 336, "NAME": "Holy See (Vatican City)", "AREA": 0, "POP2005": 783, "REGION": 150, "SUBREGION": 39, "LON": 12.451, "LAT": 41.904 }, "geometry": { "type": "Point", "coordinates": [ 12.451134613807673, 41.904177526625119 ] } },
{ "type": "Feature", "properties": { "FIPS": "SV", "ISO2": "SJ", "ISO3": "SJM", "UN": 744, "NAME": "Svalbard", "AREA": 0, "POP2005": 0, "REGION": 150, "SUBREGION": 154, "LON": 18.374, "LAT": 78.83 }, "geometry": { "type": "Point", "coordinates": [ 18.405475607520486, 78.833480641464149 ] } },
{ "type": "Feature", "properties": { "FIPS": "RN", "ISO2": "MF", "ISO3": "MAF", "UN": 663, "NAME": "Saint Martin", "AREA": 0, "POP2005": 0, "REGION": 19, "SUBREGION": 29, "LON": -63.041, "LAT": 18.094 }, "geometry": { "type": "Point", "coordinates": [ -63.052655333333263, 18.068810666666657 ] } },
{ "type": "Feature", "properties": { "FIPS": "TB", "ISO2": "BL", "ISO3": "BLM", "UN": 652, "NAME": "Saint Barthelemy", "AREA": 0, "POP2005": 0, "REGION": 19, "SUBREGION": 29, "LON": -63.043, "LAT": 18.04 }, "geometry": { "type": "Point", "coordinates": [ -63.05988, 18.047143333333313 ] } },
{ "type": "Feature", "properties": { "FIPS": "GK", "ISO2": "GG", "ISO3": "GGY", "UN": 831, "NAME": "Guernsey", "AREA": 0, "POP2005": 0, "REGION": 150, "SUBREGION": 154, "LON": -2.576, "LAT": 49.459 }, "geometry": { "type": "Point", "coordinates": [ -2.58759, 49.454811 ] } },
{ "type": "Feature", "properties": { "FIPS": "JE", "ISO2": "JE", "ISO3": "JEY", "UN": 832, "NAME": "Jersey", "AREA": 0, "POP2005": 0, "REGION": 150, "SUBREGION": 154, "LON": -2.129, "LAT": 49.219 }, "geometry": { "type": "Point", "coordinates": [ -2.155833333333296, 49.216016333333343 ] } },
{ "type": "Feature", "properties": { "FIPS": "SX", "ISO2": "GS", "ISO3": "SGS", "UN": 239, "NAME": "South Georgia South Sandwich Islands", "AREA": 0, "POP2005": 0, "REGION": 0, "SUBREGION": 0, "LON": -36.891, "LAT": -54.209 }, "geometry": { "type": "Point", "coordinates": [ -36.318033729090537, -54.54878425249759 ] } },
{ "type": "Feature", "properties": { "FIPS": "TW", "ISO2": "TW", "ISO3": "TWN", "UN": 158, "NAME": "Taiwan", "AREA": 0, "POP2005": 0, "REGION": 0, "SUBREGION": 0, "LON": 120.946, "LAT": 23.754 }, "geometry": { "type": "Point", "coordinates": [ 120.93871508836884, 23.742997442742933 ] } }
]
}
